{
  "places": [
    {
      "id": "example-1",
      "name": "宽窄巷子",
      "address": "青羊区金河路口宽窄巷子",
      "city": "成都",
      "province": "四川",
      "location": {
        "lng": 104.04177,
        "lat": 30.67283
      },
      "foods": [
        {
          "name": "三大炮",
          "description": "成都传统小吃，糯米团配红糖",
          "tags": ["传统小吃", "甜品"]
        },
        {
          "name": "担担面",
          "description": "成都特色面食，麻辣鲜香",
          "tags": ["川菜", "面食", "辣"]
        }
      ],
      "thumbnail": null,
      "videoUrl": "https://example.com/video1",
      "addedDate": "2025-11-30T12:00:00Z"
    },
    {
      "id": "example-2",
      "name": "西安回民街",
      "address": "莲湖区北院门",
      "city": "西安",
      "province": "陕西",
      "location": {
        "lng": 108.93977,
        "lat": 34.26415
      },
      "foods": [
        {
          "name": "肉夹馍",
          "description": "陕西特色美食，酥脆的馍配香嫩的肉",
          "tags": ["陕西菜", "特色小吃"]
        },
        {
          "name": "羊肉泡馍",
          "description": "西安必吃美食",
          "tags": ["陕西菜", "主食"]
        },
        {
          "name": "凉皮",
          "description": "清爽可口的夏日美食",
          "tags": ["小吃", "素食"]
        }
      ],
      "thumbnail": null,
      "videoUrl": "https://example.com/video2",
      "addedDate": "2025-11-29T10:30:00Z"
    },
    {
      "id": "example-3",
      "name": "南锣鼓巷",
      "address": "东城区南锣鼓巷",
      "city": "北京",
      "province": "北京",
      "location": {
        "lng": 116.40344,
        "lat": 39.93738
      },
      "foods": [
        {
          "name": "炸酱面",
          "description": "老北京传统面食",
          "tags": ["北京菜", "面食"]
        },
        {
          "name": "豆汁焦圈",
          "description": "北京特色早点",
          "tags": ["传统小吃", "早餐"]
        }
      ],
      "thumbnail": null,
      "videoUrl": "https://example.com/video3",
      "addedDate": "2025-11-28T08:15:00Z"
    }
  ]
}

